[
  {
    "iata": "SVO",
    "name": "Sheremetyevo International",
    "city": "Moscow",
    "country": "Russia",
    "lat": 55.9736,
    "lon": 37.4125,
    "id": 1
  },
  {
    "iata": "DME",
    "name": "Domodedovo International",
    "city": "Moscow",
    "country": "Russia",
    "lat": 55.4088,
    "lon": 37.9063,
    "id": 2
  },
  {
    "iata": "LED",
    "name": "Pulkovo Airport",
    "city": "Saint Petersburg",
    "country": "Russia",
    "lat": 59.8003,
    "lon": 30.2625,
    "id": 3
  },
  {
    "iata": "JFK",
    "name": "John F. Kennedy International",
    "city": "New York",
    "country": "USA",
    "lat": 40.6413,
    "lon": -73.7781,
    "id": 4
  },
  {
    "iata": "LAX",
    "name": "Los Angeles International",
    "city": "Los Angeles",
    "country": "USA",
    "lat": 33.9416,
    "lon": -118.4085,
    "id": 5
  },
  {
    "iata": "ORD",
    "name": "O'Hare International",
    "city": "Chicago",
    "country": "USA",
    "lat": 41.9742,
    "lon": -87.9073,
    "id": 6
  },
  {
    "iata": "SFO",
    "name": "San Francisco International",
    "city": "San Francisco",
    "country": "USA",
    "lat": 37.6213,
    "lon": -122.379,
    "id": 7
  },
  {
    "iata": "MIA",
    "name": "Miami International",
    "city": "Miami",
    "country": "USA",
    "lat": 25.7959,
    "lon": -80.287,
    "id": 8
  },
  {
    "iata": "LHR",
    "name": "Heathrow",
    "city": "London",
    "country": "United Kingdom",
    "lat": 51.47,
    "lon": -0.4543,
    "id": 9
  },
  {
    "iata": "LGW",
    "name": "Gatwick",
    "city": "London",
    "country": "United Kingdom",
    "lat": 51.1537,
    "lon": -0.1821,
    "id": 10
  },
  {
    "iata": "CDG",
    "name": "Charles de Gaulle",
    "city": "Paris",
    "country": "France",
    "lat": 49.0097,
    "lon": 2.5479,
    "id": 11
  },
  {
    "iata": "ORY",
    "name": "Orly",
    "city": "Paris",
    "country": "France",
    "lat": 48.7233,
    "lon": 2.3794,
    "id": 12
  },
  {
    "iata": "FRA",
    "name": "Frankfurt Airport",
    "city": "Frankfurt",
    "country": "Germany",
    "lat": 50.0379,
    "lon": 8.5622,
    "id": 13
  },
  {
    "iata": "MUC",
    "name": "Munich Airport",
    "city": "Munich",
    "country": "Germany",
    "lat": 48.3538,
    "lon": 11.7861,
    "id": 14
  },
  {
    "iata": "AMS",
    "name": "Amsterdam Schiphol",
    "city": "Amsterdam",
    "country": "Netherlands",
    "lat": 52.3105,
    "lon": 4.7683,
    "id": 15
  },
  {
    "iata": "MAD",
    "name": "Adolfo Suárez Madrid–Barajas",
    "city": "Madrid",
    "country": "Spain",
    "lat": 40.4983,
    "lon": -3.5676,
    "id": 16
  },
  {
    "iata": "BCN",
    "name": "Barcelona–El Prat",
    "city": "Barcelona",
    "country": "Spain",
    "lat": 41.2974,
    "lon": 2.0833,
    "id": 17
  },
  {
    "iata": "FCO",
    "name": "Leonardo da Vinci–Fiumicino",
    "city": "Rome",
    "country": "Italy",
    "lat": 41.8003,
    "lon": 12.2389,
    "id": 18
  },
  {
    "iata": "MXP",
    "name": "Malpensa",
    "city": "Milan",
    "country": "Italy",
    "lat": 45.6306,
    "lon": 8.7281,
    "id": 19
  },
  {
    "iata": "ZRH",
    "name": "Zurich Airport",
    "city": "Zurich",
    "country": "Switzerland",
    "lat": 47.4647,
    "lon": 8.5492,
    "id": 20
  },
  {
    "iata": "VIE",
    "name": "Vienna International",
    "city": "Vienna",
    "country": "Austria",
    "lat": 48.1103,
    "lon": 16.5697,
    "id": 21
  },
  {
    "iata": "IST",
    "name": "Istanbul Airport",
    "city": "Istanbul",
    "country": "Turkey",
    "lat": 41.2753,
    "lon": 28.7519,
    "id": 22
  },
  {
    "iata": "SAW",
    "name": "Sabiha Gökçen",
    "city": "Istanbul",
    "country": "Turkey",
    "lat": 40.8986,
    "lon": 29.3092,
    "id": 23
  },
  {
    "iata": "DXB",
    "name": "Dubai International",
    "city": "Dubai",
    "country": "UAE",
    "lat": 25.2532,
    "lon": 55.3657,
    "id": 24
  },
  {
    "iata": "AUH",
    "name": "Abu Dhabi International",
    "city": "Abu Dhabi",
    "country": "UAE",
    "lat": 24.433,
    "lon": 54.6511,
    "id": 25
  },
  {
    "iata": "DOH",
    "name": "Hamad International",
    "city": "Doha",
    "country": "Qatar",
    "lat": 25.2731,
    "lon": 51.6081,
    "id": 26
  },
  {
    "iata": "DEL",
    "name": "Indira Gandhi International",
    "city": "Delhi",
    "country": "India",
    "lat": 28.5562,
    "lon": 77.1,
    "id": 27
  },
  {
    "iata": "BOM",
    "name": "Chhatrapati Shivaji Maharaj International",
    "city": "Mumbai",
    "country": "India",
    "lat": 19.0896,
    "lon": 72.8656,
    "id": 28
  },
  {
    "iata": "PEK",
    "name": "Beijing Capital International",
    "city": "Beijing",
    "country": "China",
    "lat": 40.0799,
    "lon": 116.6031,
    "id": 29
  },
  {
    "iata": "PVG",
    "name": "Shanghai Pudong International",
    "city": "Shanghai",
    "country": "China",
    "lat": 31.1443,
    "lon": 121.8083,
    "id": 30
  },
  {
    "iata": "HKG",
    "name": "Hong Kong International",
    "city": "Hong Kong",
    "country": "China",
    "lat": 22.308,
    "lon": 113.9185,
    "id": 31
  },
  {
    "iata": "NRT",
    "name": "Narita International",
    "city": "Tokyo",
    "country": "Japan",
    "lat": 35.772,
    "lon": 140.3929,
    "id": 32
  },
  {
    "iata": "HND",
    "name": "Haneda",
    "city": "Tokyo",
    "country": "Japan",
    "lat": 35.5494,
    "lon": 139.7798,
    "id": 33
  },
  {
    "iata": "ICN",
    "name": "Incheon International",
    "city": "Seoul",
    "country": "South Korea",
    "lat": 37.4602,
    "lon": 126.4407,
    "id": 34
  },
  {
    "iata": "SIN",
    "name": "Changi Airport",
    "city": "Singapore",
    "country": "Singapore",
    "lat": 1.3644,
    "lon": 103.9915,
    "id": 35
  },
  {
    "iata": "BKK",
    "name": "Suvarnabhumi Airport",
    "city": "Bangkok",
    "country": "Thailand",
    "lat": 13.69,
    "lon": 100.7501,
    "id": 36
  },
  {
    "iata": "KUL",
    "name": "Kuala Lumpur International",
    "city": "Kuala Lumpur",
    "country": "Malaysia",
    "lat": 2.7456,
    "lon": 101.7099,
    "id": 37
  },
  {
    "iata": "SYD",
    "name": "Sydney Kingsford Smith",
    "city": "Sydney",
    "country": "Australia",
    "lat": -33.9399,
    "lon": 151.1753,
    "id": 38
  },
  {
    "iata": "MEL",
    "name": "Melbourne Airport",
    "city": "Melbourne",
    "country": "Australia",
    "lat": -37.669,
    "lon": 144.841,
    "id": 39
  },
  {
    "iata": "AKL",
    "name": "Auckland Airport",
    "city": "Auckland",
    "country": "New Zealand",
    "lat": -37.0082,
    "lon": 174.785,
    "id": 40
  },
  {
    "iata": "GRU",
    "name": "São Paulo–Guarulhos",
    "city": "São Paulo",
    "country": "Brazil",
    "lat": -23.4356,
    "lon": -46.4731,
    "id": 41
  },
  {
    "iata": "GIG",
    "name": "Rio de Janeiro–Galeão",
    "city": "Rio de Janeiro",
    "country": "Brazil",
    "lat": -22.809,
    "lon": -43.2506,
    "id": 42
  },
  {
    "iata": "EZE",
    "name": "Ministro Pistarini",
    "city": "Buenos Aires",
    "country": "Argentina",
    "lat": -34.8222,
    "lon": -58.5358,
    "id": 43
  },
  {
    "iata": "MEX",
    "name": "Mexico City International",
    "city": "Mexico City",
    "country": "Mexico",
    "lat": 19.4363,
    "lon": -99.0721,
    "id": 44
  },
  {
    "iata": "YYZ",
    "name": "Toronto Pearson International",
    "city": "Toronto",
    "country": "Canada",
    "lat": 43.6777,
    "lon": -79.6248,
    "id": 45
  },
  {
    "iata": "YVR",
    "name": "Vancouver International",
    "city": "Vancouver",
    "country": "Canada",
    "lat": 49.1939,
    "lon": -123.1844,
    "id": 46
  },
  {
    "iata": "CAI",
    "name": "Cairo International",
    "city": "Cairo",
    "country": "Egypt",
    "lat": 30.1219,
    "lon": 31.4056,
    "id": 47
  },
  {
    "iata": "JNB",
    "name": "O.R. Tambo International",
    "city": "Johannesburg",
    "country": "South Africa",
    "lat": -26.1392,
    "lon": 28.246,
    "id": 48
  },
  {
    "iata": "CPT",
    "name": "Cape Town International",
    "city": "Cape Town",
    "country": "South Africa",
    "lat": -33.9648,
    "lon": 18.6017,
    "id": 49
  },
  {
    "iata": "NBO",
    "name": "Jomo Kenyatta International",
    "city": "Nairobi",
    "country": "Kenya",
    "lat": -1.3192,
    "lon": 36.9278,
    "id": 50
  },
  {
    "iata": "LIS",
    "name": "Humberto Delgado Airport",
    "city": "Lisbon",
    "country": "Portugal",
    "lat": 38.7813,
    "lon": -9.1359,
    "id": 51
  },
  {
    "iata": "ARN",
    "name": "Stockholm Arlanda",
    "city": "Stockholm",
    "country": "Sweden",
    "lat": 59.6519,
    "lon": 17.9186,
    "id": 52
  },
  {
    "iata": "OSL",
    "name": "Oslo Gardermoen",
    "city": "Oslo",
    "country": "Norway",
    "lat": 60.1939,
    "lon": 11.1004,
    "id": 53
  },
  {
    "iata": "CPH",
    "name": "Copenhagen Airport",
    "city": "Copenhagen",
    "country": "Denmark",
    "lat": 55.618,
    "lon": 12.656,
    "id": 54
  },
  {
    "iata": "HEL",
    "name": "Helsinki-Vantaa",
    "city": "Helsinki",
    "country": "Finland",
    "lat": 60.3172,
    "lon": 24.9633,
    "id": 55
  },
  {
    "iata": "WAW",
    "name": "Warsaw Chopin",
    "city": "Warsaw",
    "country": "Poland",
    "lat": 52.1657,
    "lon": 20.9671,
    "id": 56
  },
  {
    "iata": "PRG",
    "name": "Václav Havel Airport",
    "city": "Prague",
    "country": "Czech Republic",
    "lat": 50.1008,
    "lon": 14.2632,
    "id": 57
  },
  {
    "iata": "BUD",
    "name": "Budapest Ferenc Liszt International",
    "city": "Budapest",
    "country": "Hungary",
    "lat": 47.4298,
    "lon": 19.2611,
    "id": 58
  },
  {
    "iata": "ATH",
    "name": "Athens International",
    "city": "Athens",
    "country": "Greece",
    "lat": 37.9364,
    "lon": 23.9445,
    "id": 59
  },
  {
    "iata": "DUB",
    "name": "Dublin Airport",
    "city": "Dublin",
    "country": "Ireland",
    "lat": 53.4213,
    "lon": -6.2701,
    "id": 60
  },
  {
    "iata": "BRU",
    "name": "Brussels Airport",
    "city": "Brussels",
    "country": "Belgium",
    "lat": 50.9014,
    "lon": 4.4844,
    "id": 61
  },
  {
    "iata": "TLV",
    "name": "Ben Gurion Airport",
    "city": "Tel Aviv",
    "country": "Israel",
    "lat": 32.0114,
    "lon": 34.8867,
    "id": 62
  },
  {
    "iata": "AYT",
    "name": "Antalya Airport",
    "city": "Antalya",
    "country": "Turkey",
    "lat": 36.8987,
    "lon": 30.8005,
    "id": 63
  }
]